[
  {
    "id": 1,
    "name": "Provider A",
    "address": "123 Main St",
    "cost": "$$$",
    "location": { "lat": -23.5505, "lng": -46.6333 }
  },
  {
    "id": 2,
    "name": "Server B",
    "address": "Street St",
    "cost": "$$",
    "location": { "lat": -23.5517, "lng": -46.6341 }
  },
  {
    "id": 3,
    "name": "Server C",
    "address": "Street St",
    "cost": "$$",
    "location": { "lat": -23.552, "lng": -46.63 }
  },
  {
    "id": 4,
    "name": "Server D",
    "address": "Street St",
    "cost": "$$",
    "location": { "lat": -23.4725, "lng": -46.6789 }
  },
  {
    "id": 5,
    "name": "Server E",
    "address": "Street St",
    "cost": "$$",
    "location": { "lat": -22.4221, "lng": -47.6553 }
  },
  {
    "id": 6,
    "name": "Server B G",
    "address": "Street St",
    "cost": "$$",
    "location": { "lat": -23.54507863636529, "lng": -46.63511114674117 }
  },
  {
    "id": 7,
    "name": "Server B H",
    "address": "Street St",
    "cost": "$$",
    "location": { "lat": -23.535486000811833, "lng": -46.61556711960889 }
  },
  {
    "id": 8,
    "name": "Server C I",
    "address": "Street St",
    "cost": "$$",
    "location": { "lat": -23.54133993207777, "lng": -46.6432677480009 }
  },
  {
    "id": 9,
    "name": "Provider A J",
    "address": "123 Main St",
    "cost": "$$$",
    "location": { "lat": -23.534486331378517, "lng": -46.66017219512839 }
  },
  {
    "id": 10,
    "name": "Provider A K",
    "address": "123 Main St",
    "cost": "$$$",
    "location": { "lat": -23.53604189116343, "lng": -46.63767039031915 }
  },
  {
    "id": 11,
    "name": "Server C L",
    "address": "Street St",
    "cost": "$$",
    "location": { "lat": -23.57109405817636, "lng": -46.627704452200106 }
  },
  {
    "id": 12,
    "name": "Server E M",
    "address": "Street St",
    "cost": "$$",
    "location": { "lat": -22.40530037322376, "lng": -47.62932553153385 }
  },
  {
    "id": 13,
    "name": "Server E N",
    "address": "Street St",
    "cost": "$$",
    "location": { "lat": -22.425285464623485, "lng": -47.639457393900955 }
  },
  {
    "id": 14,
    "name": "Provider A O",
    "address": "123 Main St",
    "cost": "$$$",
    "location": { "lat": -23.5242907978684, "lng": -46.652387915746964 }
  },
  {
    "id": 15,
    "name": "Server C P",
    "address": "Street St",
    "cost": "$$",
    "location": { "lat": -23.550206788656084, "lng": -46.64415390335557 }
  },
  {
    "id": 16,
    "name": "Server C Q",
    "address": "Street St",
    "cost": "$$",
    "location": { "lat": -23.57092965491433, "lng": -46.6277977259989 }
  },
  {
    "id": 17,
    "name": "Server E R",
    "address": "Street St",
    "cost": "$$",
    "location": { "lat": -22.43540503779695, "lng": -47.66999405582922 }
  },
  {
    "id": 18,
    "name": "Server C S",
    "address": "Street St",
    "cost": "$$",
    "location": { "lat": -23.553202091654587, "lng": -46.645424632816926 }
  },
  {
    "id": 19,
    "name": "Server D T",
    "address": "Street St",
    "cost": "$$",
    "location": { "lat": -23.451095168747237, "lng": -46.67712597196679 }
  },
  {
    "id": 20,
    "name": "Provider A U",
    "address": "123 Main St",
    "cost": "$$$",
    "location": { "lat": -23.524293700852088, "lng": -46.61093757516883 }
  },
  {
    "id": 21,
    "name": "Server B V",
    "address": "Street St",
    "cost": "$$",
    "location": { "lat": -23.570608171543306, "lng": -46.618538586622954 }
  },
  {
    "id": 22,
    "name": "Server B W",
    "address": "Street St",
    "cost": "$$",
    "location": { "lat": -23.532383828923983, "lng": -46.65707161734906 }
  },
  {
    "id": 23,
    "name": "Server C X",
    "address": "Street St",
    "cost": "$$",
    "location": { "lat": -23.53104801255777, "lng": -46.63521134678361 }
  },
  {
    "id": 24,
    "name": "Server E Y",
    "address": "Street St",
    "cost": "$$",
    "location": { "lat": -22.43166722064802, "lng": -47.64507955518963 }
  },
  {
    "id": 25,
    "name": "Server E Z",
    "address": "Street St",
    "cost": "$$",
    "location": { "lat": -22.410953617948163, "lng": -47.63028605129566 }
  },
  {
    "id": 26,
    "name": "Server C A",
    "address": "Street St",
    "cost": "$$",
    "location": { "lat": -23.562898024880177, "lng": -46.644799129663014 }
  },
  {
    "id": 27,
    "name": "Server E B",
    "address": "Street St",
    "cost": "$$",
    "location": { "lat": -22.43699809499914, "lng": -47.64775050268561 }
  },
  {
    "id": 28,
    "name": "Server D C",
    "address": "Street St",
    "cost": "$$",
    "location": { "lat": -23.498921268930076, "lng": -46.65728127974138 }
  },
  {
    "id": 29,
    "name": "Server C D",
    "address": "Street St",
    "cost": "$$",
    "location": { "lat": -23.574580019247634, "lng": -46.622984960724054 }
  },
  {
    "id": 30,
    "name": "Server B E",
    "address": "Street St",
    "cost": "$$",
    "location": { "lat": -23.57704332058006, "lng": -46.61098870798471 }
  },
  {
    "id": 31,
    "name": "Server E F",
    "address": "Street St",
    "cost": "$$",
    "location": { "lat": -22.406122688486793, "lng": -47.62856354673037 }
  },
  {
    "id": 32,
    "name": "Server E G",
    "address": "Street St",
    "cost": "$$",
    "location": { "lat": -22.41025640539243, "lng": -47.647191033826566 }
  },
  {
    "id": 33,
    "name": "Server D H",
    "address": "Street St",
    "cost": "$$",
    "location": { "lat": -23.467833280356363, "lng": -46.70278890664244 }
  },
  {
    "id": 34,
    "name": "Provider A I",
    "address": "123 Main St",
    "cost": "$$$",
    "location": { "lat": -23.568418914727744, "lng": -46.627723635371844 }
  },
  {
    "id": 35,
    "name": "Server E J",
    "address": "Street St",
    "cost": "$$",
    "location": { "lat": -22.443489795691733, "lng": -47.64167962611325 }
  },
  {
    "id": 36,
    "name": "Server B K",
    "address": "Street St",
    "cost": "$$",
    "location": { "lat": -23.57230978916114, "lng": -46.64807948329621 }
  },
  {
    "id": 37,
    "name": "Server D L",
    "address": "Street St",
    "cost": "$$",
    "location": { "lat": -23.44734627819989, "lng": -46.657235844660434 }
  },
  {
    "id": 38,
    "name": "Server E M",
    "address": "Street St",
    "cost": "$$",
    "location": { "lat": -22.41313296085713, "lng": -47.65132546335311 }
  },
  {
    "id": 39,
    "name": "Provider A N",
    "address": "123 Main St",
    "cost": "$$$",
    "location": { "lat": -23.536538627813396, "lng": -46.63857771830213 }
  },
  {
    "id": 40,
    "name": "Server C O",
    "address": "Street St",
    "cost": "$$",
    "location": { "lat": -23.525900216749132, "lng": -46.6237861991791 }
  },
  {
    "id": 41,
    "name": "Server B P",
    "address": "Street St",
    "cost": "$$",
    "location": { "lat": -23.546513898586117, "lng": -46.63376924659059 }
  },
  {
    "id": 42,
    "name": "Server C Q",
    "address": "Street St",
    "cost": "$$",
    "location": { "lat": -23.565389434404853, "lng": -46.64345435695599 }
  },
  {
    "id": 43,
    "name": "Provider A R",
    "address": "123 Main St",
    "cost": "$$$",
    "location": { "lat": -23.553539684593922, "lng": -46.61886017745799 }
  },
  {
    "id": 44,
    "name": "Server C S",
    "address": "Street St",
    "cost": "$$",
    "location": { "lat": -23.54604848780606, "lng": -46.635222635487594 }
  },
  {
    "id": 45,
    "name": "Server E T",
    "address": "Street St",
    "cost": "$$",
    "location": { "lat": -22.42561543516636, "lng": -47.67730168225725 }
  },
  {
    "id": 46,
    "name": "Server B U",
    "address": "Street St",
    "cost": "$$",
    "location": { "lat": -23.576899868007988, "lng": -46.608643927195054 }
  },
  {
    "id": 47,
    "name": "Server D V",
    "address": "Street St",
    "cost": "$$",
    "location": { "lat": -23.449719468023186, "lng": -46.69675662322662 }
  },
  {
    "id": 48,
    "name": "Server D W",
    "address": "Street St",
    "cost": "$$",
    "location": { "lat": -23.455499637112396, "lng": -46.700897402983074 }
  },
  {
    "id": 49,
    "name": "Provider A X",
    "address": "123 Main St",
    "cost": "$$$",
    "location": { "lat": -23.558742054857984, "lng": -46.65850572474498 }
  },
  {
    "id": 50,
    "name": "Server C Y",
    "address": "Street St",
    "cost": "$$",
    "location": { "lat": -23.578559766031493, "lng": -46.6104342747745 }
  },
  {
    "id": 51,
    "name": "Server B Z",
    "address": "Street St",
    "cost": "$$",
    "location": { "lat": -23.56188193172237, "lng": -46.62052950246528 }
  },
  {
    "id": 52,
    "name": "Server C A",
    "address": "Street St",
    "cost": "$$",
    "location": { "lat": -23.562936213172026, "lng": -46.609110868977595 }
  },
  {
    "id": 53,
    "name": "Server C B",
    "address": "Street St",
    "cost": "$$",
    "location": { "lat": -23.56499531126491, "lng": -46.64062407211118 }
  },
  {
    "id": 54,
    "name": "Server C C",
    "address": "Street St",
    "cost": "$$",
    "location": { "lat": -23.56067855884157, "lng": -46.63130432608641 }
  },
  {
    "id": 55,
    "name": "Server D D",
    "address": "Street St",
    "cost": "$$",
    "location": { "lat": -23.468144027314004, "lng": -46.6771536024205 }
  },
  {
    "id": 56,
    "name": "Server C E",
    "address": "Street St",
    "cost": "$$",
    "location": { "lat": -23.571884597493884, "lng": -46.63517511135332 }
  },
  {
    "id": 57,
    "name": "Provider A F",
    "address": "123 Main St",
    "cost": "$$$",
    "location": { "lat": -23.528284105469513, "lng": -46.64088534405436 }
  },
  {
    "id": 58,
    "name": "Server C G",
    "address": "Street St",
    "cost": "$$",
    "location": { "lat": -23.536412880636014, "lng": -46.622238564327155 }
  },
  {
    "id": 59,
    "name": "Server E H",
    "address": "Street St",
    "cost": "$$",
    "location": { "lat": -22.414500291382016, "lng": -47.67547644985134 }
  },
  {
    "id": 60,
    "name": "Server D I",
    "address": "Street St",
    "cost": "$$",
    "location": { "lat": -23.45553608725185, "lng": -46.65911044380766 }
  },
  {
    "id": 61,
    "name": "Server C J",
    "address": "Street St",
    "cost": "$$",
    "location": { "lat": -23.561070083537814, "lng": -46.627102555357105 }
  },
  {
    "id": 62,
    "name": "Server D K",
    "address": "Street St",
    "cost": "$$",
    "location": { "lat": -23.489236938399795, "lng": -46.68033509864295 }
  },
  {
    "id": 63,
    "name": "Server E L",
    "address": "Street St",
    "cost": "$$",
    "location": { "lat": -22.41459930145625, "lng": -47.629848103185715 }
  },
  {
    "id": 64,
    "name": "Server C M",
    "address": "Street St",
    "cost": "$$",
    "location": { "lat": -23.533468336305695, "lng": -46.64057737407268 }
  },
  {
    "id": 65,
    "name": "Provider A N",
    "address": "123 Main St",
    "cost": "$$$",
    "location": { "lat": -23.573989658682986, "lng": -46.65641392737662 }
  },
  {
    "id": 66,
    "name": "Server B O",
    "address": "Street St",
    "cost": "$$",
    "location": { "lat": -23.530566946817835, "lng": -46.61132670910591 }
  },
  {
    "id": 67,
    "name": "Server B P",
    "address": "Street St",
    "cost": "$$",
    "location": { "lat": -23.53119590234848, "lng": -46.647877023199094 }
  },
  {
    "id": 68,
    "name": "Server D Q",
    "address": "Street St",
    "cost": "$$",
    "location": { "lat": -23.482924591107064, "lng": -46.657196128228335 }
  },
  {
    "id": 69,
    "name": "Provider A R",
    "address": "123 Main St",
    "cost": "$$$",
    "location": { "lat": -23.566274289268367, "lng": -46.65953143266208 }
  },
  {
    "id": 70,
    "name": "Server B S",
    "address": "Street St",
    "cost": "$$",
    "location": { "lat": -23.528236431095642, "lng": -46.641937283229026 }
  },
  {
    "id": 71,
    "name": "Server E T",
    "address": "Street St",
    "cost": "$$",
    "location": { "lat": -22.415785940008956, "lng": -47.677417148288214 }
  },
  {
    "id": 72,
    "name": "Server B U",
    "address": "Street St",
    "cost": "$$",
    "location": { "lat": -23.556017116125066, "lng": -46.648256537815335 }
  },
  {
    "id": 73,
    "name": "Server D V",
    "address": "Street St",
    "cost": "$$",
    "location": { "lat": -23.498720035064963, "lng": -46.68145080784496 }
  },
  {
    "id": 74,
    "name": "Server E W",
    "address": "Street St",
    "cost": "$$",
    "location": { "lat": -22.42282074811383, "lng": -47.67104522417179 }
  },
  {
    "id": 75,
    "name": "Server D X",
    "address": "Street St",
    "cost": "$$",
    "location": { "lat": -23.445972147148808, "lng": -46.68928841307883 }
  },
  {
    "id": 76,
    "name": "Server E Y",
    "address": "Street St",
    "cost": "$$",
    "location": { "lat": -22.430809605857842, "lng": -47.6573782055031 }
  },
  {
    "id": 77,
    "name": "Server C Z",
    "address": "Street St",
    "cost": "$$",
    "location": { "lat": -23.546628759044857, "lng": -46.649638540945155 }
  },
  {
    "id": 78,
    "name": "Server C A",
    "address": "Street St",
    "cost": "$$",
    "location": { "lat": -23.563550473035928, "lng": -46.61812105891509 }
  },
  {
    "id": 79,
    "name": "Server C B",
    "address": "Street St",
    "cost": "$$",
    "location": { "lat": -23.564478234229494, "lng": -46.638160773863724 }
  },
  {
    "id": 80,
    "name": "Server E C",
    "address": "Street St",
    "cost": "$$",
    "location": { "lat": -22.414404927044277, "lng": -47.63798482820642 }
  },
  {
    "id": 81,
    "name": "Server D D",
    "address": "Street St",
    "cost": "$$",
    "location": { "lat": -23.469509666150596, "lng": -46.68744309215228 }
  },
  {
    "id": 82,
    "name": "Server B E",
    "address": "Street St",
    "cost": "$$",
    "location": { "lat": -23.570976906431017, "lng": -46.61188128260826 }
  },
  {
    "id": 83,
    "name": "Provider A F",
    "address": "123 Main St",
    "cost": "$$$",
    "location": { "lat": -23.53359073823052, "lng": -46.6558277410665 }
  },
  {
    "id": 84,
    "name": "Server E G",
    "address": "Street St",
    "cost": "$$",
    "location": { "lat": -22.42545849340194, "lng": -47.674609499714656 }
  },
  {
    "id": 85,
    "name": "Server B H",
    "address": "Street St",
    "cost": "$$",
    "location": { "lat": -23.53402698016491, "lng": -46.60835410989054 }
  },
  {
    "id": 86,
    "name": "Server C I",
    "address": "Street St",
    "cost": "$$",
    "location": { "lat": -23.551252351701855, "lng": -46.62282929173331 }
  },
  {
    "id": 87,
    "name": "Server D J",
    "address": "Street St",
    "cost": "$$",
    "location": { "lat": -23.49590656094235, "lng": -46.685014051228386 }
  },
  {
    "id": 88,
    "name": "Server D K",
    "address": "Street St",
    "cost": "$$",
    "location": { "lat": -23.494299356839583, "lng": -46.694882143956185 }
  },
  {
    "id": 89,
    "name": "Server E L",
    "address": "Street St",
    "cost": "$$",
    "location": { "lat": -22.427161979938564, "lng": -47.64777361376848 }
  },
  {
    "id": 90,
    "name": "Server D M",
    "address": "Street St",
    "cost": "$$",
    "location": { "lat": -23.487064794197455, "lng": -46.678118070509115 }
  },
  {
    "id": 91,
    "name": "Server B N",
    "address": "Street St",
    "cost": "$$",
    "location": { "lat": -23.543118130717648, "lng": -46.63246802044839 }
  },
  {
    "id": 92,
    "name": "Server C O",
    "address": "Street St",
    "cost": "$$",
    "location": { "lat": -23.57829741023024, "lng": -46.64153896948695 }
  },
  {
    "id": 93,
    "name": "Provider A P",
    "address": "123 Main St",
    "cost": "$$$",
    "location": { "lat": -23.52664392472657, "lng": -46.64324399107303 }
  },
  {
    "id": 94,
    "name": "Server B Q",
    "address": "Street St",
    "cost": "$$",
    "location": { "lat": -23.534322866288395, "lng": -46.631308934041705 }
  },
  {
    "id": 95,
    "name": "Server B R",
    "address": "Street St",
    "cost": "$$",
    "location": { "lat": -23.54502744915948, "lng": -46.64297983983016 }
  },
  {
    "id": 96,
    "name": "Server C S",
    "address": "Street St",
    "cost": "$$",
    "location": { "lat": -23.557911676673186, "lng": -46.61671470779935 }
  },
  {
    "id": 97,
    "name": "Provider A T",
    "address": "123 Main St",
    "cost": "$$$",
    "location": { "lat": -23.531665074955082, "lng": -46.628333229984946 }
  },
  {
    "id": 98,
    "name": "Server B U",
    "address": "Street St",
    "cost": "$$",
    "location": { "lat": -23.539526534785423, "lng": -46.65553439697918 }
  },
  {
    "id": 99,
    "name": "Provider A V",
    "address": "123 Main St",
    "cost": "$$$",
    "location": { "lat": -23.5686845861619, "lng": -46.62161156085957 }
  },
  {
    "id": 100,
    "name": "Server D W",
    "address": "Street St",
    "cost": "$$",
    "location": { "lat": -23.449985219030516, "lng": -46.66133632900025 }
  },
  {
    "id": 101,
    "name": "Server D X",
    "address": "Street St",
    "cost": "$$",
    "location": { "lat": -23.49262248200527, "lng": -46.68320392859429 }
  },
  {
    "id": 102,
    "name": "Server E Y",
    "address": "Street St",
    "cost": "$$",
    "location": { "lat": -22.402752739025058, "lng": -47.67941798255011 }
  },
  {
    "id": 103,
    "name": "Server B Z",
    "address": "Street St",
    "cost": "$$",
    "location": { "lat": -23.525778400331074, "lng": -46.63794798886174 }
  },
  {
    "id": 104,
    "name": "Server E A",
    "address": "Street St",
    "cost": "$$",
    "location": { "lat": -22.446806010737934, "lng": -47.66670438424352 }
  },
  {
    "id": 105,
    "name": "Provider A B",
    "address": "123 Main St",
    "cost": "$$$",
    "location": { "lat": -23.566542307151682, "lng": -46.62650071000856 }
  }
]
